{
   "plus_code" : {
      "compound_code" : "F9HJ+HW Montreal, QC, Canada",
      "global_code" : "87Q8F9HJ+HW"
   },
   "results" : [
      {
         "address_components" : [
            {
               "long_name" : "4186",
               "short_name" : "4186",
               "types" : [ "street_number" ]
            },
            {
               "long_name" : "Avenue Northcliffe",
               "short_name" : "Avenue Northcliffe",
               "types" : [ "route" ]
            },
            {
               "long_name" : "Côte-Des-Neiges—Notre-Dame-De-Grâce",
               "short_name" : "Côte-Des-Neiges—Notre-Dame-De-Grâce",
               "types" : [ "political", "sublocality", "sublocality_level_1" ]
            },
            {
               "long_name" : "Montréal",
               "short_name" : "Montréal",
               "types" : [ "locality", "political" ]
            },
            {
               "long_name" : "Communauté-Urbaine-de-Montréal",
               "short_name" : "Communauté-Urbaine-de-Montréal",
               "types" : [ "administrative_area_level_2", "political" ]
            },
            {
               "long_name" : "Québec",
               "short_name" : "QC",
               "types" : [ "administrative_area_level_1", "political" ]
            },
            {
               "long_name" : "Canada",
               "short_name" : "CA",
               "types" : [ "country", "political" ]
            },
            {
               "long_name" : "H4A 3L3",
               "short_name" : "H4A 3L3",
               "types" : [ "postal_code" ]
            }
         ],
         "formatted_address" : "4186 Avenue Northcliffe, Montréal, QC H4A 3L3, Canada",
         "geometry" : {
            "bounds" : {
               "northeast" : {
                  "lat" : 45.4789564,
                  "lng" : -73.6176859
               },
               "southwest" : {
                  "lat" : 45.4787712,
                  "lng" : -73.61788059999999
               }
            },
            "location" : {
               "lat" : 45.4788672,
               "lng" : -73.6177795
            },
            "location_type" : "ROOFTOP",
            "viewport" : {
               "northeast" : {
                  "lat" : 45.4802127802915,
                  "lng" : -73.61643426970849
               },
               "southwest" : {
                  "lat" : 45.4775148197085,
                  "lng" : -73.6191322302915
               }
            }
         },
         "place_id" : "ChIJgQvUm6wQyUwR8uG24XGAIzM",
         "types" : [ "premise" ]
      },
      {
         "address_components" : [
            {
               "long_name" : "4184",
               "short_name" : "4184",
               "types" : [ "street_number" ]
            },
            {
               "long_name" : "Avenue Northcliffe",
               "short_name" : "Avenue Northcliffe",
               "types" : [ "route" ]
            },
            {
               "long_name" : "Côte-Des-Neiges—Notre-Dame-De-Grâce",
               "short_name" : "Côte-Des-Neiges—Notre-Dame-De-Grâce",
               "types" : [ "political", "sublocality", "sublocality_level_1" ]
            },
            {
               "long_name" : "Montréal",
               "short_name" : "Montréal",
               "types" : [ "locality", "political" ]
            },
            {
               "long_name" : "Communauté-Urbaine-de-Montréal",
               "short_name" : "Communauté-Urbaine-de-Montréal",
               "types" : [ "administrative_area_level_2", "political" ]
            },
            {
               "long_name" : "Québec",
               "short_name" : "QC",
               "types" : [ "administrative_area_level_1", "political" ]
            },
            {
               "long_name" : "Canada",
               "short_name" : "CA",
               "types" : [ "country", "political" ]
            },
            {
               "long_name" : "H4A 3L3",
               "short_name" : "H4A 3L3",
               "types" : [ "postal_code" ]
            }
         ],
         "formatted_address" : "4184 Avenue Northcliffe, Montréal, QC H4A 3L3, Canada",
         "geometry" : {
            "location" : {
               "lat" : 45.4789089,
               "lng" : -73.61765819999999
            },
            "location_type" : "ROOFTOP",
            "viewport" : {
               "northeast" : {
                  "lat" : 45.4802578802915,
                  "lng" : -73.6163092197085
               },
               "southwest" : {
                  "lat" : 45.4775599197085,
                  "lng" : -73.6190071802915
               }
            }
         },
         "place_id" : "ChIJAZ_mm6wQyUwR269hIgE-HbY",
         "plus_code" : {
            "compound_code" : "F9HJ+HW Montreal, QC, Canada",
            "global_code" : "87Q8F9HJ+HW"
         },
         "types" : [ "street_address" ]
      },
      {
         "address_components" : [
            {
               "long_name" : "4166",
               "short_name" : "4166",
               "types" : [ "street_number" ]
            },
            {
               "long_name" : "Avenue Northcliffe",
               "short_name" : "Avenue Northcliffe",
               "types" : [ "route" ]
            },
            {
               "long_name" : "Côte-Des-Neiges—Notre-Dame-De-Grâce",
               "short_name" : "Côte-Des-Neiges—Notre-Dame-De-Grâce",
               "types" : [ "political", "sublocality", "sublocality_level_1" ]
            },
            {
               "long_name" : "Montréal",
               "short_name" : "Montréal",
               "types" : [ "locality", "political" ]
            },
            {
               "long_name" : "Communauté-Urbaine-de-Montréal",
               "short_name" : "Communauté-Urbaine-de-Montréal",
               "types" : [ "administrative_area_level_2", "political" ]
            },
            {
               "long_name" : "Québec",
               "short_name" : "QC",
               "types" : [ "administrative_area_level_1", "political" ]
            },
            {
               "long_name" : "Canada",
               "short_name" : "CA",
               "types" : [ "country", "political" ]
            },
            {
               "long_name" : "H4A 3L3",
               "short_name" : "H4A 3L3",
               "types" : [ "postal_code" ]
            }
         ],
         "formatted_address" : "4166 Avenue Northcliffe, Montréal, QC H4A 3L3, Canada",
         "geometry" : {
            "location" : {
               "lat" : 45.4787593,
               "lng" : -73.6174295
            },
            "location_type" : "ROOFTOP",
            "viewport" : {
               "northeast" : {
                  "lat" : 45.4801082802915,
                  "lng" : -73.61608051970849
               },
               "southwest" : {
                  "lat" : 45.4774103197085,
                  "lng" : -73.61877848029151
               }
            }
         },
         "place_id" : "ChIJyw-4OocRyUwR96pULWlXXiw",
         "plus_code" : {
            "compound_code" : "F9HM+G2 Montreal, QC, Canada",
            "global_code" : "87Q8F9HM+G2"
         },
         "types" : [ "establishment", "general_contractor", "point_of_interest" ]
      },
      {
         "address_components" : [
            {
               "long_name" : "4177",
               "short_name" : "4177",
               "types" : [ "street_number" ]
            },
            {
               "long_name" : "Avenue Northcliffe",
               "short_name" : "Avenue Northcliffe",
               "types" : [ "route" ]
            },
            {
               "long_name" : "Côte-Des-Neiges—Notre-Dame-De-Grâce",
               "short_name" : "Côte-Des-Neiges—Notre-Dame-De-Grâce",
               "types" : [ "political", "sublocality", "sublocality_level_1" ]
            },
            {
               "long_name" : "Montréal",
               "short_name" : "Montréal",
               "types" : [ "locality", "political" ]
            },
            {
               "long_name" : "Communauté-Urbaine-de-Montréal",
               "short_name" : "Communauté-Urbaine-de-Montréal",
               "types" : [ "administrative_area_level_2", "political" ]
            },
            {
               "long_name" : "Québec",
               "short_name" : "QC",
               "types" : [ "administrative_area_level_1", "political" ]
            },
            {
               "long_name" : "Canada",
               "short_name" : "CA",
               "types" : [ "country", "political" ]
            },
            {
               "long_name" : "H4A 3L2",
               "short_name" : "H4A 3L2",
               "types" : [ "postal_code" ]
            }
         ],
         "formatted_address" : "4177 Avenue Northcliffe, Montréal, QC H4A 3L2, Canada",
         "geometry" : {
            "location" : {
               "lat" : 45.4790188,
               "lng" : -73.61761050000001
            },
            "location_type" : "RANGE_INTERPOLATED",
            "viewport" : {
               "northeast" : {
                  "lat" : 45.4803677802915,
                  "lng" : -73.61626151970852
               },
               "southwest" : {
                  "lat" : 45.4776698197085,
                  "lng" : -73.61895948029152
               }
            }
         },
         "place_id" : "EjY0MTc3IEF2ZW51ZSBOb3J0aGNsaWZmZSwgTW9udHLDqWFsLCBRQyBINEEgM0wyLCBDYW5hZGEiGxIZChQKEglBfeyHrBDJTBGAhl1WA47QthDRIA",
         "types" : [ "street_address" ]
      },
      {
         "address_components" : [
            {
               "long_name" : "3939-4225",
               "short_name" : "3939-4225",
               "types" : [ "street_number" ]
            },
            {
               "long_name" : "Avenue Northcliffe",
               "short_name" : "Avenue Northcliffe",
               "types" : [ "route" ]
            },
            {
               "long_name" : "Côte-Des-Neiges—Notre-Dame-De-Grâce",
               "short_name" : "Côte-Des-Neiges—Notre-Dame-De-Grâce",
               "types" : [ "political", "sublocality", "sublocality_level_1" ]
            },
            {
               "long_name" : "Montréal",
               "short_name" : "Montréal",
               "types" : [ "locality", "political" ]
            },
            {
               "long_name" : "Communauté-Urbaine-de-Montréal",
               "short_name" : "Communauté-Urbaine-de-Montréal",
               "types" : [ "administrative_area_level_2", "political" ]
            },
            {
               "long_name" : "Québec",
               "short_name" : "QC",
               "types" : [ "administrative_area_level_1", "political" ]
            },
            {
               "long_name" : "Canada",
               "short_name" : "CA",
               "types" : [ "country", "political" ]
            },
            {
               "long_name" : "H4A 3L2",
               "short_name" : "H4A 3L2",
               "types" : [ "postal_code" ]
            }
         ],
         "formatted_address" : "3939-4225 Avenue Northcliffe, Montréal, QC H4A 3L2, Canada",
         "geometry" : {
            "bounds" : {
               "northeast" : {
                  "lat" : 45.4794484,
                  "lng" : -73.61488969999999
               },
               "southwest" : {
                  "lat" : 45.4777889,
                  "lng" : -73.618561
               }
            },
            "location" : {
               "lat" : 45.4786187,
               "lng" : -73.6167253
            },
            "location_type" : "GEOMETRIC_CENTER",
            "viewport" : {
               "northeast" : {
                  "lat" : 45.4799676302915,
                  "lng" : -73.61488969999999
               },
               "southwest" : {
                  "lat" : 45.4772696697085,
                  "lng" : -73.618561
               }
            }
         },
         "place_id" : "ChIJQX3sh6wQyUwRgIZdVgOO0LY",
         "types" : [ "route" ]
      },
      {
         "address_components" : [
            {
               "long_name" : "H4A 3L3",
               "short_name" : "H4A 3L3",
               "types" : [ "postal_code" ]
            },
            {
               "long_name" : "Côte-Des-Neiges—Notre-Dame-De-Grâce",
               "short_name" : "Côte-Des-Neiges—Notre-Dame-De-Grâce",
               "types" : [ "political", "sublocality", "sublocality_level_1" ]
            },
            {
               "long_name" : "Montréal",
               "short_name" : "Montréal",
               "types" : [ "locality", "political" ]
            },
            {
               "long_name" : "Communauté-Urbaine-de-Montréal",
               "short_name" : "Communauté-Urbaine-de-Montréal",
               "types" : [ "administrative_area_level_2", "political" ]
            },
            {
               "long_name" : "Québec",
               "short_name" : "QC",
               "types" : [ "administrative_area_level_1", "political" ]
            },
            {
               "long_name" : "Canada",
               "short_name" : "CA",
               "types" : [ "country", "political" ]
            }
         ],
         "formatted_address" : "Montreal, QC H4A 3L3, Canada",
         "geometry" : {
            "bounds" : {
               "northeast" : {
                  "lat" : 45.479426,
                  "lng" : -73.61487389999999
               },
               "southwest" : {
                  "lat" : 45.4775337,
                  "lng" : -73.6187927
               }
            },
            "location" : {
               "lat" : 45.47846999999999,
               "lng" : -73.61679769999999
            },
            "location_type" : "APPROXIMATE",
            "viewport" : {
               "northeast" : {
                  "lat" : 45.4798288302915,
                  "lng" : -73.61487389999999
               },
               "southwest" : {
                  "lat" : 45.4771308697085,
                  "lng" : -73.6187927
               }
            }
         },
         "place_id" : "ChIJObNBiKwQyUwRWPl5gVld65k",
         "types" : [ "postal_code" ]
      },
      {
         "address_components" : [
            {
               "long_name" : "H4A",
               "short_name" : "H4A",
               "types" : [ "postal_code", "postal_code_prefix" ]
            },
            {
               "long_name" : "Montreal",
               "short_name" : "Montreal",
               "types" : [ "locality", "political" ]
            },
            {
               "long_name" : "Montreal",
               "short_name" : "Montreal",
               "types" : [ "administrative_area_level_2", "political" ]
            },
            {
               "long_name" : "Quebec",
               "short_name" : "QC",
               "types" : [ "administrative_area_level_1", "political" ]
            },
            {
               "long_name" : "Canada",
               "short_name" : "CA",
               "types" : [ "country", "political" ]
            }
         ],
         "formatted_address" : "Montreal, QC H4A, Canada",
         "geometry" : {
            "bounds" : {
               "northeast" : {
                  "lat" : 45.482038,
                  "lng" : -73.5954709
               },
               "southwest" : {
                  "lat" : 45.463193,
                  "lng" : -73.6340629
               }
            },
            "location" : {
               "lat" : 45.4715012,
               "lng" : -73.61410289999999
            },
            "location_type" : "APPROXIMATE",
            "viewport" : {
               "northeast" : {
                  "lat" : 45.482038,
                  "lng" : -73.5954709
               },
               "southwest" : {
                  "lat" : 45.463193,
                  "lng" : -73.6340629
               }
            }
         },
         "place_id" : "ChIJq9jEvrEQyUwRON8JAe6i0I4",
         "types" : [ "postal_code", "postal_code_prefix" ]
      },
      {
         "address_components" : [
            {
               "long_name" : "Notre-Dame-de-Grâce",
               "short_name" : "Notre-Dame-de-Grâce",
               "types" : [ "neighborhood", "political" ]
            },
            {
               "long_name" : "Côte-Des-Neiges—Notre-Dame-De-Grâce",
               "short_name" : "Côte-Des-Neiges—Notre-Dame-De-Grâce",
               "types" : [ "political", "sublocality", "sublocality_level_1" ]
            },
            {
               "long_name" : "Montréal",
               "short_name" : "Montréal",
               "types" : [ "locality", "political" ]
            },
            {
               "long_name" : "Communauté-Urbaine-de-Montréal",
               "short_name" : "Communauté-Urbaine-de-Montréal",
               "types" : [ "administrative_area_level_2", "political" ]
            },
            {
               "long_name" : "Québec",
               "short_name" : "QC",
               "types" : [ "administrative_area_level_1", "political" ]
            },
            {
               "long_name" : "Canada",
               "short_name" : "CA",
               "types" : [ "country", "political" ]
            }
         ],
         "formatted_address" : "Notre-Dame-de-Grâce, Montréal, QC, Canada",
         "geometry" : {
            "bounds" : {
               "northeast" : {
                  "lat" : 45.484108,
                  "lng" : -73.59672549999999
               },
               "southwest" : {
                  "lat" : 45.4505503,
                  "lng" : -73.65805809999999
               }
            },
            "location" : {
               "lat" : 45.4651745,
               "lng" : -73.6322193
            },
            "location_type" : "APPROXIMATE",
            "viewport" : {
               "northeast" : {
                  "lat" : 45.484108,
                  "lng" : -73.59672549999999
               },
               "southwest" : {
                  "lat" : 45.4505503,
                  "lng" : -73.65805809999999
               }
            }
         },
         "place_id" : "ChIJi-QgSrMQyUwRRTl-94amGWM",
         "types" : [ "neighborhood", "political" ]
      },
      {
         "address_components" : [
            {
               "long_name" : "Côte-Des-Neiges—Notre-Dame-De-Grâce",
               "short_name" : "Côte-Des-Neiges—Notre-Dame-De-Grâce",
               "types" : [ "political", "sublocality", "sublocality_level_1" ]
            },
            {
               "long_name" : "Montreal",
               "short_name" : "Montreal",
               "types" : [ "locality", "political" ]
            },
            {
               "long_name" : "Montreal",
               "short_name" : "Montreal",
               "types" : [ "administrative_area_level_2", "political" ]
            },
            {
               "long_name" : "Quebec",
               "short_name" : "QC",
               "types" : [ "administrative_area_level_1", "political" ]
            },
            {
               "long_name" : "Canada",
               "short_name" : "CA",
               "types" : [ "country", "political" ]
            }
         ],
         "formatted_address" : "Côte-Des-Neiges—Notre-Dame-De-Grâce, Montreal, QC, Canada",
         "geometry" : {
            "bounds" : {
               "northeast" : {
                  "lat" : 45.517062,
                  "lng" : -73.59385109999999
               },
               "southwest" : {
                  "lat" : 45.44929,
                  "lng" : -73.6763849
               }
            },
            "location" : {
               "lat" : 45.4911511,
               "lng" : -73.6326526
            },
            "location_type" : "APPROXIMATE",
            "viewport" : {
               "northeast" : {
                  "lat" : 45.517062,
                  "lng" : -73.59385109999999
               },
               "southwest" : {
                  "lat" : 45.44929,
                  "lng" : -73.6763849
               }
            }
         },
         "place_id" : "ChIJoyYME1kXyUwREE7zlomiETs",
         "types" : [ "political", "sublocality", "sublocality_level_1" ]
      },
      {
         "address_components" : [
            {
               "long_name" : "Montreal",
               "short_name" : "Montreal",
               "types" : [ "locality", "political" ]
            },
            {
               "long_name" : "Montreal",
               "short_name" : "Montreal",
               "types" : [ "administrative_area_level_2", "political" ]
            },
            {
               "long_name" : "Quebec",
               "short_name" : "QC",
               "types" : [ "administrative_area_level_1", "political" ]
            },
            {
               "long_name" : "Canada",
               "short_name" : "CA",
               "types" : [ "country", "political" ]
            }
         ],
         "formatted_address" : "Montreal, QC, Canada",
         "geometry" : {
            "bounds" : {
               "northeast" : {
                  "lat" : 45.7058381,
                  "lng" : -73.47426
               },
               "southwest" : {
                  "lat" : 45.410246,
                  "lng" : -73.986345
               }
            },
            "location" : {
               "lat" : 45.5016889,
               "lng" : -73.567256
            },
            "location_type" : "APPROXIMATE",
            "viewport" : {
               "northeast" : {
                  "lat" : 45.7058381,
                  "lng" : -73.47426
               },
               "southwest" : {
                  "lat" : 45.410246,
                  "lng" : -73.986345
               }
            }
         },
         "place_id" : "ChIJDbdkHFQayUwR7-8fITgxTmU",
         "types" : [ "locality", "political" ]
      },
      {
         "address_components" : [
            {
               "long_name" : "Island of Montreal",
               "short_name" : "Island of Montreal",
               "types" : [ "establishment", "natural_feature" ]
            },
            {
               "long_name" : "Montreal",
               "short_name" : "Montreal",
               "types" : [ "administrative_area_level_2", "political" ]
            },
            {
               "long_name" : "Quebec",
               "short_name" : "QC",
               "types" : [ "administrative_area_level_1", "political" ]
            },
            {
               "long_name" : "Canada",
               "short_name" : "CA",
               "types" : [ "country", "political" ]
            }
         ],
         "formatted_address" : "Island of Montreal, Quebec, Canada",
         "geometry" : {
            "bounds" : {
               "northeast" : {
                  "lat" : 45.70291779999999,
                  "lng" : -73.47612909999999
               },
               "southwest" : {
                  "lat" : 45.4021531,
                  "lng" : -73.9756239
               }
            },
            "location" : {
               "lat" : 45.5126399,
               "lng" : -73.6802448
            },
            "location_type" : "APPROXIMATE",
            "viewport" : {
               "northeast" : {
                  "lat" : 45.70291779999999,
                  "lng" : -73.47612909999999
               },
               "southwest" : {
                  "lat" : 45.4021531,
                  "lng" : -73.9756239
               }
            }
         },
         "place_id" : "ChIJo09QvtoYyUwRtA3S9MbUuDM",
         "types" : [ "establishment", "natural_feature" ]
      },
      {
         "address_components" : [
            {
               "long_name" : "Montreal",
               "short_name" : "Montreal",
               "types" : [ "administrative_area_level_2", "political" ]
            },
            {
               "long_name" : "Quebec",
               "short_name" : "QC",
               "types" : [ "administrative_area_level_1", "political" ]
            },
            {
               "long_name" : "Canada",
               "short_name" : "CA",
               "types" : [ "country", "political" ]
            }
         ],
         "formatted_address" : "Montreal, QC, Canada",
         "geometry" : {
            "bounds" : {
               "northeast" : {
                  "lat" : 45.7058381,
                  "lng" : -73.47426
               },
               "southwest" : {
                  "lat" : 45.375141,
                  "lng" : -73.986345
               }
            },
            "location" : {
               "lat" : 45.4699445,
               "lng" : -73.7852913
            },
            "location_type" : "APPROXIMATE",
            "viewport" : {
               "northeast" : {
                  "lat" : 45.7058381,
                  "lng" : -73.47426
               },
               "southwest" : {
                  "lat" : 45.375141,
                  "lng" : -73.986345
               }
            }
         },
         "place_id" : "ChIJl7TSQk3ex0wRM0QRpZ0sb30",
         "types" : [ "administrative_area_level_2", "political" ]
      },
      {
         "address_components" : [
            {
               "long_name" : "Quebec",
               "short_name" : "QC",
               "types" : [ "administrative_area_level_1", "political" ]
            },
            {
               "long_name" : "Canada",
               "short_name" : "CA",
               "types" : [ "country", "political" ]
            }
         ],
         "formatted_address" : "Quebec, Canada",
         "geometry" : {
            "bounds" : {
               "northeast" : {
                  "lat" : 62.600852,
                  "lng" : -57.1054859
               },
               "southwest" : {
                  "lat" : 44.9913581,
                  "lng" : -79.77947379999999
               }
            },
            "location" : {
               "lat" : 52.9399159,
               "lng" : -73.5491361
            },
            "location_type" : "APPROXIMATE",
            "viewport" : {
               "northeast" : {
                  "lat" : 62.600852,
                  "lng" : -57.1054859
               },
               "southwest" : {
                  "lat" : 44.9913581,
                  "lng" : -79.77947379999999
               }
            }
         },
         "place_id" : "ChIJoajRnzS1WEwRIABNrq0MBAE",
         "types" : [ "administrative_area_level_1", "political" ]
      },
      {
         "address_components" : [
            {
               "long_name" : "Canada",
               "short_name" : "CA",
               "types" : [ "country", "political" ]
            }
         ],
         "formatted_address" : "Canada",
         "geometry" : {
            "bounds" : {
               "northeast" : {
                  "lat" : 83.63809999999999,
                  "lng" : -50.9766
               },
               "southwest" : {
                  "lat" : 41.6765559,
                  "lng" : -141.00187
               }
            },
            "location" : {
               "lat" : 56.130366,
               "lng" : -106.346771
            },
            "location_type" : "APPROXIMATE",
            "viewport" : {
               "northeast" : {
                  "lat" : 83.63809999999999,
                  "lng" : -50.9766
               },
               "southwest" : {
                  "lat" : 41.6765559,
                  "lng" : -141.00187
               }
            }
         },
         "place_id" : "ChIJ2WrMN9MDDUsRpY9Doiq3aJk",
         "types" : [ "country", "political" ]
      },
      {
         "address_components" : [
            {
               "long_name" : "F9HJ+HW",
               "short_name" : "F9HJ+HW",
               "types" : [ "plus_code" ]
            },
            {
               "long_name" : "Montreal",
               "short_name" : "Montreal",
               "types" : [ "locality", "political" ]
            },
            {
               "long_name" : "Montreal",
               "short_name" : "Montreal",
               "types" : [ "administrative_area_level_2", "political" ]
            },
            {
               "long_name" : "Quebec",
               "short_name" : "QC",
               "types" : [ "administrative_area_level_1", "political" ]
            },
            {
               "long_name" : "Canada",
               "short_name" : "CA",
               "types" : [ "country", "political" ]
            }
         ],
         "formatted_address" : "F9HJ+HW Montreal, QC, Canada",
         "geometry" : {
            "bounds" : {
               "northeast" : {
                  "lat" : 45.479,
                  "lng" : -73.61762499999999
               },
               "southwest" : {
                  "lat" : 45.478875,
                  "lng" : -73.61775
               }
            },
            "location" : {
               "lat" : 45.478905,
               "lng" : -73.61773699999999
            },
            "location_type" : "ROOFTOP",
            "viewport" : {
               "northeast" : {
                  "lat" : 45.48028648029149,
                  "lng" : -73.61633851970849
               },
               "southwest" : {
                  "lat" : 45.47758851970849,
                  "lng" : -73.6190364802915
               }
            }
         },
         "place_id" : "GhIJCHJQwky9RkAR3SHFAIlnUsA",
         "plus_code" : {
            "compound_code" : "F9HJ+HW Montreal, QC, Canada",
            "global_code" : "87Q8F9HJ+HW"
         },
         "types" : [ "plus_code" ]
      }
   ],
   "status" : "OK"
}